[
  {
    "id": "badaguan-scenic",
    "name": "八大关风景区",
    "nameEn": "Badaguan Scenic Area",
    "category": "nature",
    "description": "中国著名的风景疗养区，汇集了20多个国家的建筑风格，被誉为万国建筑博览会。秋季梧桐叶变黄时景色最美。",
    "address": "青岛市市南区武胜关支路10号",
    "lat": 36.0536,
    "lng": 120.3556,
    "hours": "全天开放",
    "price": "免费",
    "time": "2-3小时",
    "highlights": [
      "万国建筑群",
      "花石楼",
      "公主楼",
      "秋季梧桐大道"
    ]
  },
  {
    "id": "may-fourth-square",
    "name": "五四广场",
    "nameEn": "May Fourth Square",
    "category": "landmark",
    "description": "为纪念五四运动而建，标志性雕塑五月的风以红色螺旋造型著称，是青岛新城区的地标。",
    "address": "青岛市市南区澳门路9号",
    "lat": 36.0667,
    "lng": 120.3833,
    "hours": "全天开放",
    "price": "免费",
    "time": "1小时",
    "highlights": [
      "五月的风雕塑",
      "海滨步道",
      "灯光秀"
    ]
  },
  {
    "id": "tsingtao-brewery",
    "name": "青岛啤酒博物馆",
    "nameEn": "Tsingtao Beer Museum",
    "category": "museum",
    "description": "中国唯一的啤酒博物馆，展示了青岛啤酒百年历史和酿造工艺，参观后可品尝新鲜啤酒。",
    "address": "青岛市市北区登州路56号",
    "lat": 36.0756,
    "lng": 120.3556,
    "hours": "08:30-17:00",
    "price": "50元",
    "time": "1-2小时",
    "highlights": [
      "百年酿造设备",
      "啤酒品鉴",
      "醉酒小屋"
    ]
  },
  {
    "id": "little-qingdao-island",
    "name": "小青岛",
    "nameEn": "Little Qingdao Island",
    "category": "nature",
    "description": "位于胶州湾入口处的小岛，因形似古琴又称琴岛。岛上的白色灯塔是青岛的象征之一。",
    "address": "青岛市市南区琴屿路26号",
    "lat": 36.0536,
    "lng": 120.3222,
    "hours": "07:30-18:00",
    "price": "15元",
    "time": "1小时",
    "highlights": [
      "白色灯塔",
      "海景栈道",
      "日落观景"
    ]
  },
  {
    "id": "laoshan-scenic",
    "name": "崂山",
    "nameEn": "Mount Lao",
    "category": "nature",
    "description": "中国海岸线上最高的山峰，海拔1133米，被誉为海上第一名山。道教文化深厚，自然风光壮美。",
    "address": "青岛市崂山区崂山风景区",
    "lat": 36.1833,
    "lng": 120.6167,
    "hours": "07:00-18:00",
    "price": "180元",
    "time": "全天",
    "highlights": [
      "太清宫",
      "仰口海滩",
      "北九水",
      "巨峰日出"
    ]
  },
  {
    "id": "jiaozhou-bay-bridge",
    "name": "胶州湾大桥",
    "nameEn": "Jiaozhou Bay Bridge",
    "category": "landmark",
    "description": "全长36.48公里，曾是世界上最长的跨海大桥。桥梁设计优美，夜间灯光璀璨。",
    "address": "青岛市黄岛区",
    "lat": 36.1167,
    "lng": 120.25,
    "hours": "全天",
    "price": "通行费",
    "time": "30分钟",
    "highlights": [
      "跨海大桥",
      "海景驾驶",
      "夜景灯光"
    ]
  },
  {
    "id": "signal-hill-park",
    "name": "信号山公园",
    "nameEn": "Signal Hill Park",
    "category": "park",
    "description": "海拔98米，因曾在山顶设信号旗台而得名。山顶旋转观景台可360度俯瞰青岛红瓦绿树碧海蓝天。",
    "address": "青岛市市南区龙山路16号",
    "lat": 36.0639,
    "lng": 120.3361,
    "hours": "07:00-18:30",
    "price": "15元",
    "time": "1-2小时",
    "highlights": [
      "旋转观景台",
      "红瓦绿树全景",
      "德式建筑"
    ]
  },
  {
    "id": "xiaoyushan-park",
    "name": "小鱼山公园",
    "nameEn": "Xiaoyushan Park",
    "category": "park",
    "description": "海拔60米，山顶的览潮阁是观赏青岛前海景致的最佳地点。公园内有多处反映青岛历史文化的壁画。",
    "address": "青岛市市南区福山支路24号",
    "lat": 36.0611,
    "lng": 120.3306,
    "hours": "07:00-18:30",
    "price": "15元",
    "time": "1小时",
    "highlights": [
      "览潮阁",
      "前海全景",
      "文化壁画"
    ]
  },
  {
    "id": "golden-sand-beach",
    "name": "金沙滩",
    "nameEn": "Golden Sand Beach",
    "category": "beach",
    "description": "全长3500米，宽300米，是中国沙质最细、面积最大、风景最美的沙滩之一。海水清澈，适合游泳冲浪。",
    "address": "青岛市黄岛区金沙滩路",
    "lat": 35.95,
    "lng": 120.2167,
    "hours": "全天开放",
    "price": "免费",
    "time": "半天",
    "highlights": [
      "细沙滩",
      "冲浪",
      "日出",
      "沙滩音乐节"
    ]
  },
  {
    "id": "stone-man-scenic",
    "name": "石老人海水浴场",
    "nameEn": "Shilaoren Beach",
    "category": "beach",
    "description": "因海中巨石形似老人而得名，是青岛最大的海水浴场。日落时分石老人剪影格外壮观。",
    "address": "青岛市崂山区海口路",
    "lat": 36.1,
    "lng": 120.4667,
    "hours": "全天开放",
    "price": "免费",
    "time": "2-3小时",
    "highlights": [
      "石老人礁石",
      "日落",
      "冲浪胜地"
    ]
  },
  {
    "id": "qingdao-church",
    "name": "圣弥厄尔大教堂",
    "nameEn": "St. Michael's Cathedral",
    "category": "landmark",
    "description": "1934年建成的哥特式和罗马式建筑，双塔高56米，是青岛最大的天主教堂，也是城市标志性建筑。",
    "address": "青岛市市南区浙江路15号",
    "lat": 36.0667,
    "lng": 120.3167,
    "hours": "08:00-17:00",
    "price": "免费",
    "time": "1小时",
    "highlights": [
      "哥特式双塔",
      "彩色玻璃窗",
      "宗教文化"
    ]
  },
  {
    "id": "old-town-qingdao",
    "name": "劈柴院",
    "nameEn": "Pichai Yuan",
    "category": "street",
    "description": "青岛最有名的老街美食区，保留了民国时期的建筑风格，汇集各种青岛特色小吃和海鲜。",
    "address": "青岛市市南区河北路16号",
    "lat": 36.0694,
    "lng": 120.3167,
    "hours": "全天",
    "price": "免费",
    "time": "2小时",
    "highlights": [
      "青岛小吃",
      "海鲜大排档",
      "老建筑"
    ]
  },
  {
    "id": "naval-museum",
    "name": "中国海军博物馆",
    "nameEn": "Chinese Navy Museum",
    "category": "museum",
    "description": "中国唯一的海军军事主题博物馆，展示了退役军舰、潜艇和海军装备，可登舰参观。",
    "address": "青岛市市南区莱阳路8号",
    "lat": 36.0556,
    "lng": 120.3278,
    "hours": "08:30-17:00",
    "price": "30元",
    "time": "2小时",
    "highlights": [
      "退役军舰",
      "潜艇参观",
      "海军历史"
    ]
  },
  {
    "id": "underwater-world",
    "name": "青岛海底世界",
    "nameEn": "Qingdao Underwater World",
    "category": "museum",
    "description": "中国第一个水族馆，拥有亚洲最大的亚克力玻璃展窗，展示数百种海洋生物。",
    "address": "青岛市市南区莱阳路2号",
    "lat": 36.0556,
    "lng": 120.325,
    "hours": "08:30-17:00",
    "price": "130元",
    "time": "2-3小时",
    "highlights": [
      "海底隧道",
      "水母馆",
      "海洋生物表演"
    ]
  },
  {
    "id": "ocean-university",
    "name": "中国海洋大学",
    "nameEn": "Ocean University of China",
    "category": "landmark",
    "description": "中国最著名的海洋类高等学府，校园内保留了大量德式建筑，环境优美。",
    "address": "青岛市市南区鱼山路5号",
    "lat": 36.0639,
    "lng": 120.3333,
    "hours": "全天",
    "price": "免费",
    "time": "1-2小时",
    "highlights": [
      "德式校园建筑",
      "海洋科学馆",
      "鱼山校区"
    ]
  },
  {
    "id": "taiqing-palace",
    "name": "太清宫",
    "nameEn": "Taiqing Palace",
    "category": "temple",
    "description": "崂山最古老的道观，始建于西汉，有两千多年历史。道教文化深厚，古树参天。",
    "address": "青岛市崂山区崂山风景区内",
    "lat": 36.15,
    "lng": 120.6,
    "hours": "07:00-18:00",
    "price": "含崂山门票",
    "time": "2小时",
    "highlights": [
      "千年道观",
      "古银杏树",
      "道教文化"
    ]
  },
  {
    "id": "polar-ocean-world",
    "name": "青岛极地海洋世界",
    "nameEn": "Qingdao Polar Ocean World",
    "category": "museum",
    "description": "集极地动物展示、海洋动物表演于一体的大型主题公园，有白鲸、企鹅、北极熊等极地动物。",
    "address": "青岛市崂山区东海东路60号",
    "lat": 36.1,
    "lng": 120.45,
    "hours": "08:30-17:00",
    "price": "180元",
    "time": "3-4小时",
    "highlights": [
      "白鲸表演",
      "企鹅馆",
      "海底隧道"
    ]
  },
  {
    "id": "beer-street",
    "name": "登州路啤酒街",
    "nameEn": "Dengzhou Road Beer Street",
    "category": "street",
    "description": "青岛啤酒的发源地，整条街都是啤酒屋和海鲜大排档，用塑料袋打散啤是青岛特色。",
    "address": "青岛市市北区登州路",
    "lat": 36.0756,
    "lng": 120.3556,
    "hours": "全天",
    "price": "免费",
    "time": "2小时",
    "highlights": [
      "散装啤酒",
      "海鲜烧烤",
      "啤酒文化"
    ]
  },
  {
    "id": "silver-sand-beach",
    "name": "银沙滩",
    "nameEn": "Silver Sand Beach",
    "category": "beach",
    "description": "位于黄岛区，沙滩呈银白色，水质清澈，人少安静，是比金沙滩更清幽的海滨度假地。",
    "address": "青岛市黄岛区银沙滩路",
    "lat": 35.9333,
    "lng": 120.2,
    "hours": "全天开放",
    "price": "免费",
    "time": "半天",
    "highlights": [
      "银白沙滩",
      "清澈海水",
      "安静悠闲"
    ]
  },
  {
    "id": "zhanshan-temple",
    "name": "湛山寺",
    "nameEn": "Zhanshan Temple",
    "category": "temple",
    "description": "青岛市区唯一的佛寺，始建于1934年，依山面海，环境清幽。寺内有七级浮屠塔。",
    "address": "青岛市市南区芝泉路2号",
    "lat": 36.0583,
    "lng": 120.35,
    "hours": "08:00-17:00",
    "price": "10元",
    "time": "1小时",
    "highlights": [
      "浮屠塔",
      "佛教文化",
      "城市中的净土"
    ]
  },
  {
    "id": "olympic-sailing-center",
    "name": "奥帆中心",
    "nameEn": "Olympic Sailing Center",
    "category": "landmark",
    "description": "2008年北京奥运会帆船比赛场地，现为集休闲、观光、帆船体验于一体的滨海景区。",
    "address": "青岛市市南区新会路1号",
    "lat": 36.0611,
    "lng": 120.3889,
    "hours": "全天",
    "price": "免费",
    "time": "2小时",
    "highlights": [
      "奥运帆船基地",
      "情人坝",
      "灯光秀",
      "帆船体验"
    ]
  },
  {
    "id": "qingdao-museum",
    "name": "青岛市博物馆",
    "nameEn": "Qingdao Municipal Museum",
    "category": "museum",
    "description": "综合性博物馆，馆藏文物16万余件，展示了青岛从古代到近现代的历史变迁。",
    "address": "青岛市崂山区梅岭路27号",
    "lat": 36.1167,
    "lng": 120.4667,
    "hours": "09:00-17:00",
    "price": "免费",
    "time": "2小时",
    "highlights": [
      "历史文物",
      "青岛历史",
      "临时展览"
    ]
  },
  {
    "id": "shilaoren-garden",
    "name": "石老人观光园",
    "nameEn": "Shilaoren Sightseeing Garden",
    "category": "park",
    "description": "以石老人传说为主题的文化观光园，集自然风光、民俗文化、休闲娱乐于一体。",
    "address": "青岛市崂山区崂山路1号",
    "lat": 36.1,
    "lng": 120.4667,
    "hours": "08:00-17:30",
    "price": "30元",
    "time": "2小时",
    "highlights": [
      "石老人传说",
      "海景",
      "民俗文化"
    ]
  },
  {
    "id": "dagong-island",
    "name": "大公岛",
    "nameEn": "Dagong Island",
    "category": "nature",
    "description": "青岛附近最大的无人岛，海水清澈见底，是潜水和海钓的绝佳去处。",
    "address": "青岛市黄岛区海域",
    "lat": 35.9,
    "lng": 120.3,
    "hours": "需乘船前往",
    "price": "船费",
    "time": "全天",
    "highlights": [
      "潜水",
      "海钓",
      "原始海岛"
    ]
  },
  {
    "id": "world-horticultural-expo",
    "name": "青岛世界园艺博览园",
    "nameEn": "Qingdao World Horticultural Expo Garden",
    "category": "park",
    "description": "2014年世界园艺博览会会址，占地面积大，有主题馆、植物馆、地池等景点。",
    "address": "青岛市李沧区世园大道",
    "lat": 36.1833,
    "lng": 120.5,
    "hours": "09:00-17:00",
    "price": "30元",
    "time": "半天",
    "highlights": [
      "主题展馆",
      "百花园",
      "天水地池"
    ]
  },
  {
    "id": "no1-bathing-beach",
    "name": "第一海水浴场",
    "nameEn": "No.1 Bathing Beach",
    "category": "beach",
    "description": "青岛最著名的海水浴场，沙质细腻，坡度平缓，每年夏天吸引大量游客。",
    "address": "青岛市市南区南海路",
    "lat": 36.0583,
    "lng": 120.3333,
    "hours": "全天",
    "price": "免费",
    "time": "半天",
    "highlights": [
      "游泳",
      "沙滩",
      "日光浴"
    ]
  },
  {
    "id": "no6-bathing-beach",
    "name": "第六海水浴场",
    "nameEn": "No.6 Bathing Beach",
    "category": "beach",
    "description": "位于栈桥西侧，是观赏栈桥和小青岛全景的最佳位置，人少安静。",
    "address": "青岛市市南区太平路",
    "lat": 36.0639,
    "lng": 120.3806,
    "hours": "全天",
    "price": "免费",
    "time": "2小时",
    "highlights": [
      "栈桥全景",
      "安静海滩",
      "摄影胜地"
    ]
  },
  {
    "id": "zhongshan-park",
    "name": "中山公园",
    "nameEn": "Zhongshan Park",
    "category": "park",
    "description": "青岛最大的综合性公园，每年春天樱花盛开时举办樱花会，是赏花胜地。",
    "address": "青岛市市南区文登路28号",
    "lat": 36.0611,
    "lng": 120.3472,
    "hours": "全天",
    "price": "免费",
    "time": "2小时",
    "highlights": [
      "樱花大道",
      "动物园",
      "小西湖"
    ]
  }
]